[
  {"iata":"TAS","name":"Tashkent International Airport","city":"Tashkent","country":"Uzbekistan","lat":41.2579,"lon":69.2811},
  {"iata":"LHR","name":"Heathrow Airport","city":"London","country":"United Kingdom","lat":51.4775,"lon":-0.4614},
  {"iata":"JFK","name":"John F Kennedy International Airport","city":"New York","country":"United States","lat":40.6413,"lon":-73.7781},
  {"iata":"DXB","name":"Dubai International Airport","city":"Dubai","country":"United Arab Emirates","lat":25.2532,"lon":55.3657},
  {"iata":"SIN","name":"Singapore Changi Airport","city":"Singapore","country":"Singapore","lat":1.3644,"lon":103.9915},
  {"iata":"NRT","name":"Narita International Airport","city":"Tokyo","country":"Japan","lat":35.7720,"lon":140.3929},
  {"iata":"CDG","name":"Charles de Gaulle Airport","city":"Paris","country":"France","lat":49.0097,"lon":2.5479},
  {"iata":"AMS","name":"Amsterdam Airport Schiphol","city":"Amsterdam","country":"Netherlands","lat":52.3105,"lon":4.7683},
  {"iata":"FRA","name":"Frankfurt Airport","city":"Frankfurt","country":"Germany","lat":50.0379,"lon":8.5622},
  {"iata":"IST","name":"Istanbul Airport","city":"Istanbul","country":"Turkey","lat":41.2609,"lon":28.7424},
  {"iata":"ICN","name":"Incheon International Airport","city":"Seoul","country":"South Korea","lat":37.4602,"lon":126.4407},
  {"iata":"PEK","name":"Beijing Capital International Airport","city":"Beijing","country":"China","lat":40.0799,"lon":116.6031},
  {"iata":"LAX","name":"Los Angeles International Airport","city":"Los Angeles","country":"United States","lat":33.9425,"lon":-118.4081},
  {"iata":"SFO","name":"San Francisco International Airport","city":"San Francisco","country":"United States","lat":37.6213,"lon":-122.3790},
  {"iata":"ORD","name":"O'Hare International Airport","city":"Chicago","country":"United States","lat":41.9742,"lon":-87.9073},
  {"iata":"MIA","name":"Miami International Airport","city":"Miami","country":"United States","lat":25.7959,"lon":-80.2870},
  {"iata":"GRU","name":"São Paulo/Guarulhos International Airport","city":"São Paulo","country":"Brazil","lat":-23.4356,"lon":-46.4731},
  {"iata":"EZE","name":"Ministro Pistarini International Airport","city":"Buenos Aires","country":"Argentina","lat":-34.8222,"lon":-58.5358},
  {"iata":"BOM","name":"Chhatrapati Shivaji Maharaj International Airport","city":"Mumbai","country":"India","lat":19.0896,"lon":72.8656},
  {"iata":"DEL","name":"Indira Gandhi International Airport","city":"New Delhi","country":"India","lat":28.5665,"lon":77.1031},
  {"iata":"SYD","name":"Sydney Kingsford Smith Airport","city":"Sydney","country":"Australia","lat":-33.9399,"lon":151.1753},
  {"iata":"MEL","name":"Melbourne Airport","city":"Melbourne","country":"Australia","lat":-37.6690,"lon":144.8410},
  {"iata":"YYZ","name":"Toronto Pearson International Airport","city":"Toronto","country":"Canada","lat":43.6777,"lon":-79.6248},
  {"iata":"YVR","name":"Vancouver International Airport","city":"Vancouver","country":"Canada","lat":49.1967,"lon":-123.1815},
  {"iata":"MEX","name":"Mexico City International Airport","city":"Mexico City","country":"Mexico","lat":19.4363,"lon":-99.0721},
  {"iata":"BOG","name":"El Dorado International Airport","city":"Bogotá","country":"Colombia","lat":4.7016,"lon":-74.1469},
  {"iata":"LIM","name":"Jorge Chavez International Airport","city":"Lima","country":"Peru","lat":-12.0219,"lon":-77.1143},
  {"iata":"SCL","name":"Arturo Merino Benítez International Airport","city":"Santiago","country":"Chile","lat":-33.3930,"lon":-70.7858},
  {"iata":"JNB","name":"O.R. Tambo International Airport","city":"Johannesburg","country":"South Africa","lat":-26.1392,"lon":28.2460},
  {"iata":"CAI","name":"Cairo International Airport","city":"Cairo","country":"Egypt","lat":30.1219,"lon":31.4056},
  {"iata":"NBO","name":"Jomo Kenyatta International Airport","city":"Nairobi","country":"Kenya","lat":-1.3192,"lon":36.9275},
  {"iata":"LOS","name":"Murtala Muhammed International Airport","city":"Lagos","country":"Nigeria","lat":6.5774,"lon":3.3212},
  {"iata":"ADD","name":"Addis Ababa Bole International Airport","city":"Addis Ababa","country":"Ethiopia","lat":8.9779,"lon":38.7993},
  {"iata":"CMN","name":"Mohammed V International Airport","city":"Casablanca","country":"Morocco","lat":33.3675,"lon":-7.5898},
  {"iata":"MUC","name":"Munich Airport","city":"Munich","country":"Germany","lat":48.3538,"lon":11.7861},
  {"iata":"MAD","name":"Adolfo Suárez Madrid–Barajas Airport","city":"Madrid","country":"Spain","lat":40.4719,"lon":-3.5626},
  {"iata":"BCN","name":"Barcelona–El Prat Airport","city":"Barcelona","country":"Spain","lat":41.2971,"lon":2.0785},
  {"iata":"FCO","name":"Leonardo da Vinci International Airport","city":"Rome","country":"Italy","lat":41.7999,"lon":12.2462},
  {"iata":"MXP","name":"Milan Malpensa Airport","city":"Milan","country":"Italy","lat":45.6306,"lon":8.7281},
  {"iata":"ATH","name":"Athens International Airport","city":"Athens","country":"Greece","lat":37.9364,"lon":23.9445},
  {"iata":"VIE","name":"Vienna International Airport","city":"Vienna","country":"Austria","lat":48.1103,"lon":16.5697},
  {"iata":"ZRH","name":"Zurich Airport","city":"Zurich","country":"Switzerland","lat":47.4647,"lon":8.5492},
  {"iata":"BRU","name":"Brussels Airport","city":"Brussels","country":"Belgium","lat":50.9010,"lon":4.4844},
  {"iata":"CPH","name":"Copenhagen Airport","city":"Copenhagen","country":"Denmark","lat":55.6180,"lon":12.6508},
  {"iata":"ARN","name":"Stockholm Arlanda Airport","city":"Stockholm","country":"Sweden","lat":59.6519,"lon":17.9186},
  {"iata":"OSL","name":"Oslo Airport Gardermoen","city":"Oslo","country":"Norway","lat":60.1939,"lon":11.1004},
  {"iata":"HEL","name":"Helsinki-Vantaa Airport","city":"Helsinki","country":"Finland","lat":60.3172,"lon":24.9633},
  {"iata":"WAW","name":"Warsaw Chopin Airport","city":"Warsaw","country":"Poland","lat":52.1657,"lon":20.9671},
  {"iata":"PRG","name":"Václav Havel Airport Prague","city":"Prague","country":"Czech Republic","lat":50.1008,"lon":14.2600},
  {"iata":"BUD","name":"Budapest Ferenc Liszt International Airport","city":"Budapest","country":"Hungary","lat":47.4298,"lon":19.2610},
  {"iata":"OTP","name":"Henri Coandă International Airport","city":"Bucharest","country":"Romania","lat":44.5711,"lon":26.0858},
  {"iata":"SOF","name":"Sofia Airport","city":"Sofia","country":"Bulgaria","lat":42.6967,"lon":23.4114},
  {"iata":"KBP","name":"Boryspil International Airport","city":"Kyiv","country":"Ukraine","lat":50.3450,"lon":30.8947},
  {"iata":"SVO","name":"Sheremetyevo International Airport","city":"Moscow","country":"Russia","lat":55.9726,"lon":37.4146},
  {"iata":"LED","name":"Pulkovo Airport","city":"Saint Petersburg","country":"Russia","lat":59.8003,"lon":30.2625},
  {"iata":"GYD","name":"Heydar Aliyev International Airport","city":"Baku","country":"Azerbaijan","lat":40.4675,"lon":50.0467},
  {"iata":"TBS","name":"Tbilisi International Airport","city":"Tbilisi","country":"Georgia","lat":41.6692,"lon":44.9547},
  {"iata":"EVN","name":"Zvartnots International Airport","city":"Yerevan","country":"Armenia","lat":40.1473,"lon":44.3959},
  {"iata":"ALA","name":"Almaty International Airport","city":"Almaty","country":"Kazakhstan","lat":43.3521,"lon":77.0405},
  {"iata":"NQZ","name":"Nursultan Nazarbayev International Airport","city":"Nur-Sultan","country":"Kazakhstan","lat":51.0223,"lon":71.4669},
  {"iata":"FRU","name":"Manas International Airport","city":"Bishkek","country":"Kyrgyzstan","lat":43.0612,"lon":74.4776},
  {"iata":"DYU","name":"Dushanbe International Airport","city":"Dushanbe","country":"Tajikistan","lat":38.5433,"lon":68.7750},
  {"iata":"ASB","name":"Ashgabat International Airport","city":"Ashgabat","country":"Turkmenistan","lat":37.9868,"lon":58.3610},
  {"iata":"KHI","name":"Jinnah International Airport","city":"Karachi","country":"Pakistan","lat":24.9065,"lon":67.1608},
  {"iata":"LHE","name":"Allama Iqbal International Airport","city":"Lahore","country":"Pakistan","lat":31.5216,"lon":74.4036},
  {"iata":"ISB","name":"New Islamabad International Airport","city":"Islamabad","country":"Pakistan","lat":33.5607,"lon":72.8516},
  {"iata":"DAC","name":"Hazrat Shahjalal International Airport","city":"Dhaka","country":"Bangladesh","lat":23.8433,"lon":90.3978},
  {"iata":"CMB","name":"Bandaranaike International Airport","city":"Colombo","country":"Sri Lanka","lat":7.1808,"lon":79.8841},
  {"iata":"KTM","name":"Tribhuvan International Airport","city":"Kathmandu","country":"Nepal","lat":27.6966,"lon":85.3591},
  {"iata":"RGN","name":"Yangon International Airport","city":"Yangon","country":"Myanmar","lat":16.9073,"lon":96.1332},
  {"iata":"BKK","name":"Suvarnabhumi Airport","city":"Bangkok","country":"Thailand","lat":13.6900,"lon":100.7501},
  {"iata":"KUL","name":"Kuala Lumpur International Airport","city":"Kuala Lumpur","country":"Malaysia","lat":2.7456,"lon":101.7099},
  {"iata":"CGK","name":"Soekarno-Hatta International Airport","city":"Jakarta","country":"Indonesia","lat":-6.1256,"lon":106.6559},
  {"iata":"MNL","name":"Ninoy Aquino International Airport","city":"Manila","country":"Philippines","lat":14.5086,"lon":121.0197},
  {"iata":"SGN","name":"Tan Son Nhat International Airport","city":"Ho Chi Minh City","country":"Vietnam","lat":10.8188,"lon":106.6520},
  {"iata":"HAN","name":"Noi Bai International Airport","city":"Hanoi","country":"Vietnam","lat":21.2212,"lon":105.8072},
  {"iata":"PNH","name":"Phnom Penh International Airport","city":"Phnom Penh","country":"Cambodia","lat":11.5466,"lon":104.8440},
  {"iata":"VTE","name":"Wattay International Airport","city":"Vientiane","country":"Laos","lat":17.9883,"lon":102.5633},
  {"iata":"RGN","name":"Yangon International Airport","city":"Yangon","country":"Myanmar","lat":16.9073,"lon":96.1332},
  {"iata":"HKG","name":"Hong Kong International Airport","city":"Hong Kong","country":"China","lat":22.3080,"lon":113.9185},
  {"iata":"TPE","name":"Taiwan Taoyuan International Airport","city":"Taipei","country":"Taiwan","lat":25.0777,"lon":121.2327},
  {"iata":"PVG","name":"Shanghai Pudong International Airport","city":"Shanghai","country":"China","lat":31.1443,"lon":121.8083},
  {"iata":"CAN","name":"Guangzhou Baiyun International Airport","city":"Guangzhou","country":"China","lat":23.3924,"lon":113.2988},
  {"iata":"CTU","name":"Chengdu Shuangliu International Airport","city":"Chengdu","country":"China","lat":30.5785,"lon":103.9470},
  {"iata":"XIY","name":"Xi'an Xianyang International Airport","city":"Xi'an","country":"China","lat":34.4471,"lon":108.7516},
  {"iata":"URC","name":"Ürümqi Diwopu International Airport","city":"Ürümqi","country":"China","lat":43.9071,"lon":87.4742},
  {"iata":"KHN","name":"Nanchang Changbei International Airport","city":"Nanchang","country":"China","lat":28.8650,"lon":115.9000},
  {"iata":"DOH","name":"Hamad International Airport","city":"Doha","country":"Qatar","lat":25.2731,"lon":51.6081},
  {"iata":"AUH","name":"Abu Dhabi International Airport","city":"Abu Dhabi","country":"UAE","lat":24.4330,"lon":54.6511},
  {"iata":"BAH","name":"Bahrain International Airport","city":"Manama","country":"Bahrain","lat":26.2708,"lon":50.6336},
  {"iata":"MCT","name":"Muscat International Airport","city":"Muscat","country":"Oman","lat":23.5933,"lon":58.2844},
  {"iata":"KWI","name":"Kuwait International Airport","city":"Kuwait City","country":"Kuwait","lat":29.2267,"lon":47.9689},
  {"iata":"AMM","name":"Queen Alia International Airport","city":"Amman","country":"Jordan","lat":31.7226,"lon":35.9932},
  {"iata":"BEY","name":"Beirut Rafic Hariri International Airport","city":"Beirut","country":"Lebanon","lat":33.8209,"lon":35.4884},
  {"iata":"TLV","name":"Ben Gurion Airport","city":"Tel Aviv","country":"Israel","lat":32.0114,"lon":34.8867},
  {"iata":"THR","name":"Mehrabad International Airport","city":"Tehran","country":"Iran","lat":35.6892,"lon":51.3139},
  {"iata":"IKA","name":"Imam Khomeini International Airport","city":"Tehran","country":"Iran","lat":35.4161,"lon":51.1522},
  {"iata":"BGW","name":"Baghdad International Airport","city":"Baghdad","country":"Iraq","lat":33.2626,"lon":44.2346},
  {"iata":"KHI","name":"Jinnah International Airport","city":"Karachi","country":"Pakistan","lat":24.9065,"lon":67.1608},
  {"iata":"ATL","name":"Hartsfield-Jackson Atlanta International Airport","city":"Atlanta","country":"United States","lat":33.6407,"lon":-84.4277},
  {"iata":"DFW","name":"Dallas/Fort Worth International Airport","city":"Dallas","country":"United States","lat":32.8998,"lon":-97.0403},
  {"iata":"DEN","name":"Denver International Airport","city":"Denver","country":"United States","lat":39.8561,"lon":-104.6737},
  {"iata":"PHX","name":"Phoenix Sky Harbor International Airport","city":"Phoenix","country":"United States","lat":33.4373,"lon":-112.0078},
  {"iata":"IAH","name":"George Bush Intercontinental Airport","city":"Houston","country":"United States","lat":29.9902,"lon":-95.3368},
  {"iata":"EWR","name":"Newark Liberty International Airport","city":"Newark","country":"United States","lat":40.6895,"lon":-74.1745},
  {"iata":"BOS","name":"Logan International Airport","city":"Boston","country":"United States","lat":42.3656,"lon":-71.0096},
  {"iata":"MSP","name":"Minneapolis–Saint Paul International Airport","city":"Minneapolis","country":"United States","lat":44.8820,"lon":-93.2218},
  {"iata":"DTW","name":"Detroit Metropolitan Airport","city":"Detroit","country":"United States","lat":42.2124,"lon":-83.3534},
  {"iata":"SEA","name":"Seattle–Tacoma International Airport","city":"Seattle","country":"United States","lat":47.4502,"lon":-122.3088},
  {"iata":"LAS","name":"Harry Reid International Airport","city":"Las Vegas","country":"United States","lat":36.0840,"lon":-115.1537},
  {"iata":"MCO","name":"Orlando International Airport","city":"Orlando","country":"United States","lat":28.4312,"lon":-81.3081},
  {"iata":"CLT","name":"Charlotte Douglas International Airport","city":"Charlotte","country":"United States","lat":35.2140,"lon":-80.9431},
  {"iata":"PHL","name":"Philadelphia International Airport","city":"Philadelphia","country":"United States","lat":39.8744,"lon":-75.2424},
  {"iata":"BWI","name":"Baltimore/Washington International Airport","city":"Baltimore","country":"United States","lat":39.1754,"lon":-76.6683},
  {"iata":"DCA","name":"Ronald Reagan Washington National Airport","city":"Washington","country":"United States","lat":38.8521,"lon":-77.0377},
  {"iata":"IAD","name":"Washington Dulles International Airport","city":"Washington","country":"United States","lat":38.9531,"lon":-77.4565},
  {"iata":"TPA","name":"Tampa International Airport","city":"Tampa","country":"United States","lat":27.9755,"lon":-82.5332},
  {"iata":"PDX","name":"Portland International Airport","city":"Portland","country":"United States","lat":45.5898,"lon":-122.5951},
  {"iata":"SAN","name":"San Diego International Airport","city":"San Diego","country":"United States","lat":32.7336,"lon":-117.1897},
  {"iata":"SLC","name":"Salt Lake City International Airport","city":"Salt Lake City","country":"United States","lat":40.7884,"lon":-111.9778},
  {"iata":"MSY","name":"Louis Armstrong New Orleans International Airport","city":"New Orleans","country":"United States","lat":29.9934,"lon":-90.2580},
  {"iata":"AUS","name":"Austin-Bergstrom International Airport","city":"Austin","country":"United States","lat":30.1975,"lon":-97.6664},
  {"iata":"RDU","name":"Raleigh-Durham International Airport","city":"Raleigh","country":"United States","lat":35.8776,"lon":-78.7875},
  {"iata":"SMF","name":"Sacramento International Airport","city":"Sacramento","country":"United States","lat":38.6954,"lon":-121.5908},
  {"iata":"SJC","name":"Norman Y. Mineta San José International Airport","city":"San Jose","country":"United States","lat":37.3626,"lon":-121.9290},
  {"iata":"OAK","name":"Oakland International Airport","city":"Oakland","country":"United States","lat":37.7213,"lon":-122.2208},
  {"iata":"HNL","name":"Daniel K. Inouye International Airport","city":"Honolulu","country":"United States","lat":21.3187,"lon":-157.9224},
  {"iata":"ANC","name":"Ted Stevens Anchorage International Airport","city":"Anchorage","country":"United States","lat":61.1744,"lon":-149.9964},
  {"iata":"YUL","name":"Montréal-Pierre Elliott Trudeau International Airport","city":"Montreal","country":"Canada","lat":45.4706,"lon":-73.7408},
  {"iata":"YYC","name":"Calgary International Airport","city":"Calgary","country":"Canada","lat":51.1315,"lon":-114.0106},
  {"iata":"YEG","name":"Edmonton International Airport","city":"Edmonton","country":"Canada","lat":53.3097,"lon":-113.5797},
  {"iata":"YOW","name":"Ottawa Macdonald-Cartier International Airport","city":"Ottawa","country":"Canada","lat":45.3225,"lon":-75.6692},
  {"iata":"YHZ","name":"Halifax Stanfield International Airport","city":"Halifax","country":"Canada","lat":44.8808,"lon":-63.5086},
  {"iata":"GDL","name":"Don Miguel Hidalgo y Costilla International Airport","city":"Guadalajara","country":"Mexico","lat":20.5218,"lon":-103.3106},
  {"iata":"MTY","name":"Monterrey International Airport","city":"Monterrey","country":"Mexico","lat":25.7785,"lon":-100.1077},
  {"iata":"CUN","name":"Cancún International Airport","city":"Cancún","country":"Mexico","lat":21.0365,"lon":-86.8771},
  {"iata":"GIG","name":"Rio de Janeiro–Galeão International Airport","city":"Rio de Janeiro","country":"Brazil","lat":-22.8099,"lon":-43.2505},
  {"iata":"BSB","name":"Presidente Juscelino Kubitschek International Airport","city":"Brasília","country":"Brazil","lat":-15.8711,"lon":-47.9186},
  {"iata":"SSA","name":"Deputado Luís Eduardo Magalhães International Airport","city":"Salvador","country":"Brazil","lat":-12.9086,"lon":-38.3225},
  {"iata":"FOR","name":"Pinto Martins International Airport","city":"Fortaleza","country":"Brazil","lat":-3.7762,"lon":-38.5326},
  {"iata":"POA","name":"Salgado Filho International Airport","city":"Porto Alegre","country":"Brazil","lat":-29.9944,"lon":-51.1713},
  {"iata":"MVD","name":"Carrasco International Airport","city":"Montevideo","country":"Uruguay","lat":-34.8384,"lon":-56.0308},
  {"iata":"ASU","name":"Silvio Pettirossi International Airport","city":"Asunción","country":"Paraguay","lat":-25.2400,"lon":-57.5198},
  {"iata":"LPB","name":"El Alto International Airport","city":"La Paz","country":"Bolivia","lat":-16.5133,"lon":-68.1922},
  {"iata":"UIO","name":"Mariscal Sucre International Airport","city":"Quito","country":"Ecuador","lat":-0.1292,"lon":-78.3575},
  {"iata":"GYE","name":"José Joaquín de Olmedo International Airport","city":"Guayaquil","country":"Ecuador","lat":-2.1574,"lon":-79.8836},
  {"iata":"CCS","name":"Simón Bolívar International Airport","city":"Caracas","country":"Venezuela","lat":10.6012,"lon":-66.9914},
  {"iata":"PTY","name":"Tocumen International Airport","city":"Panama City","country":"Panama","lat":9.0714,"lon":-79.3835},
  {"iata":"SJO","name":"Juan Santamaría International Airport","city":"San José","country":"Costa Rica","lat":9.9939,"lon":-84.2088},
  {"iata":"SAP","name":"Ramón Villeda Morales International Airport","city":"San Pedro Sula","country":"Honduras","lat":15.4526,"lon":-87.9236},
  {"iata":"GUA","name":"La Aurora International Airport","city":"Guatemala City","country":"Guatemala","lat":14.5833,"lon":-90.5277},
  {"iata":"SAL","name":"Monseñor Óscar Arnulfo Romero International Airport","city":"San Salvador","country":"El Salvador","lat":13.4409,"lon":-89.0557},
  {"iata":"MGA","name":"Augusto C. Sandino International Airport","city":"Managua","country":"Nicaragua","lat":12.1415,"lon":-86.1681},
  {"iata":"HAV","name":"José Martí International Airport","city":"Havana","country":"Cuba","lat":22.9892,"lon":-82.4091},
  {"iata":"SDQ","name":"Las Américas International Airport","city":"Santo Domingo","country":"Dominican Republic","lat":18.4297,"lon":-69.6689},
  {"iata":"SJU","name":"Luis Muñoz Marín International Airport","city":"San Juan","country":"Puerto Rico","lat":18.4394,"lon":-66.0018},
  {"iata":"NAS","name":"Lynden Pindling International Airport","city":"Nassau","country":"Bahamas","lat":25.0389,"lon":-77.4662},
  {"iata":"KIN","name":"Norman Manley International Airport","city":"Kingston","country":"Jamaica","lat":17.9357,"lon":-76.7875},
  {"iata":"POS","name":"Piarco International Airport","city":"Port of Spain","country":"Trinidad and Tobago","lat":10.5954,"lon":-61.3372},
  {"iata":"BGI","name":"Grantley Adams International Airport","city":"Bridgetown","country":"Barbados","lat":13.0746,"lon":-59.4925},
  {"iata":"ANU","name":"V.C. Bird International Airport","city":"Antigua","country":"Antigua and Barbuda","lat":17.1368,"lon":-61.7927},
  {"iata":"LUX","name":"Luxembourg Airport","city":"Luxembourg","country":"Luxembourg","lat":49.6234,"lon":6.2044},
  {"iata":"DUB","name":"Dublin Airport","city":"Dublin","country":"Ireland","lat":53.4213,"lon":-6.2700},
  {"iata":"MAN","name":"Manchester Airport","city":"Manchester","country":"United Kingdom","lat":53.3537,"lon":-2.2750},
  {"iata":"EDI","name":"Edinburgh Airport","city":"Edinburgh","country":"United Kingdom","lat":55.9500,"lon":-3.3725},
  {"iata":"GLA","name":"Glasgow Airport","city":"Glasgow","country":"United Kingdom","lat":55.8719,"lon":-4.4331},
  {"iata":"BHX","name":"Birmingham Airport","city":"Birmingham","country":"United Kingdom","lat":52.4539,"lon":-1.7480},
  {"iata":"LGW","name":"London Gatwick Airport","city":"London","country":"United Kingdom","lat":51.1537,"lon":-0.1821},
  {"iata":"STN","name":"London Stansted Airport","city":"London","country":"United Kingdom","lat":51.8850,"lon":0.2350},
  {"iata":"LIS","name":"Humberto Delgado Airport","city":"Lisbon","country":"Portugal","lat":38.7813,"lon":-9.1359},
  {"iata":"OPO","name":"Francisco Sá Carneiro Airport","city":"Porto","country":"Portugal","lat":41.2481,"lon":-8.6814},
  {"iata":"AGP","name":"Málaga-Costa del Sol Airport","city":"Málaga","country":"Spain","lat":36.6749,"lon":-4.4991},
  {"iata":"PMI","name":"Palma de Mallorca Airport","city":"Palma","country":"Spain","lat":39.5517,"lon":2.7388},
  {"iata":"IBZ","name":"Ibiza Airport","city":"Ibiza","country":"Spain","lat":38.8729,"lon":1.3731},
  {"iata":"SVQ","name":"Seville Airport","city":"Seville","country":"Spain","lat":37.4180,"lon":-5.8931},
  {"iata":"TFS","name":"Tenerife South Airport","city":"Tenerife","country":"Spain","lat":28.0445,"lon":-16.5725},
  {"iata":"LPA","name":"Gran Canaria Airport","city":"Las Palmas","country":"Spain","lat":27.9319,"lon":-15.3866},
  {"iata":"ALC","name":"Alicante-Elche Miguel Hernández Airport","city":"Alicante","country":"Spain","lat":38.2822,"lon":-0.5582},
  {"iata":"NAP","name":"Naples International Airport","city":"Naples","country":"Italy","lat":40.8860,"lon":14.2908},
  {"iata":"VCE","name":"Venice Marco Polo Airport","city":"Venice","country":"Italy","lat":45.5053,"lon":12.3519},
  {"iata":"BLQ","name":"Bologna Guglielmo Marconi Airport","city":"Bologna","country":"Italy","lat":44.5354,"lon":11.2887},
  {"iata":"TRN","name":"Turin Airport","city":"Turin","country":"Italy","lat":45.2008,"lon":7.6497},
  {"iata":"CAG","name":"Cagliari Elmas Airport","city":"Cagliari","country":"Italy","lat":39.2515,"lon":9.0543},
  {"iata":"PMO","name":"Falcone-Borsellino Airport","city":"Palermo","country":"Italy","lat":38.1796,"lon":13.0910},
  {"iata":"BRI","name":"Karol Wojtyła Airport","city":"Bari","country":"Italy","lat":41.1389,"lon":16.7606},
  {"iata":"GVA","name":"Geneva Airport","city":"Geneva","country":"Switzerland","lat":46.2381,"lon":6.1089},
  {"iata":"BSL","name":"EuroAirport Basel Mulhouse Freiburg","city":"Basel","country":"Switzerland","lat":47.5896,"lon":7.5290},
  {"iata":"SZG","name":"Salzburg Airport","city":"Salzburg","country":"Austria","lat":47.7933,"lon":13.0043},
  {"iata":"INN","name":"Innsbruck Airport","city":"Innsbruck","country":"Austria","lat":47.2602,"lon":11.3440},
  {"iata":"HAM","name":"Hamburg Airport","city":"Hamburg","country":"Germany","lat":53.6303,"lon":9.9882},
  {"iata":"DUS","name":"Düsseldorf Airport","city":"Düsseldorf","country":"Germany","lat":51.2895,"lon":6.7668},
  {"iata":"STR","name":"Stuttgart Airport","city":"Stuttgart","country":"Germany","lat":48.6899,"lon":9.2220},
  {"iata":"NUE","name":"Nuremberg Airport","city":"Nuremberg","country":"Germany","lat":49.4987,"lon":11.0669},
  {"iata":"CGN","name":"Cologne Bonn Airport","city":"Cologne","country":"Germany","lat":50.8659,"lon":7.1427},
  {"iata":"HAJ","name":"Hanover Airport","city":"Hanover","country":"Germany","lat":52.4611,"lon":9.6850},
  {"iata":"BER","name":"Berlin Brandenburg Airport","city":"Berlin","country":"Germany","lat":52.3667,"lon":13.5033},
  {"iata":"TXL","name":"Berlin Tegel Airport","city":"Berlin","country":"Germany","lat":52.5597,"lon":13.2877},
  {"iata":"SXF","name":"Berlin Schönefeld Airport","city":"Berlin","country":"Germany","lat":52.3800,"lon":13.5225},
  {"iata":"LNZ","name":"Linz Airport","city":"Linz","country":"Austria","lat":48.2332,"lon":14.1875},
  {"iata":"GRZ","name":"Graz Airport","city":"Graz","country":"Austria","lat":46.9911,"lon":15.4396},
  {"iata":"KLU","name":"Klagenfurt Airport","city":"Klagenfurt","country":"Austria","lat":46.6425,"lon":14.3377},
  {"iata":"LJU","name":"Ljubljana Jože Pučnik Airport","city":"Ljubljana","country":"Slovenia","lat":46.2237,"lon":14.4576},
  {"iata":"ZAG","name":"Zagreb Airport","city":"Zagreb","country":"Croatia","lat":45.7429,"lon":16.0688},
  {"iata":"DBV","name":"Dubrovnik Airport","city":"Dubrovnik","country":"Croatia","lat":42.5614,"lon":18.2682},
  {"iata":"SPU","name":"Split Airport","city":"Split","country":"Croatia","lat":43.5389,"lon":16.2980},
  {"iata":"SKP","name":"Skopje International Airport","city":"Skopje","country":"North Macedonia","lat":41.9616,"lon":21.6214},
  {"iata":"TIA","name":"Tirana International Airport","city":"Tirana","country":"Albania","lat":41.4147,"lon":19.7206},
  {"iata":"BEG","name":"Belgrade Nikola Tesla Airport","city":"Belgrade","country":"Serbia","lat":44.8184,"lon":20.3091},
  {"iata":"SAR","name":"Sarajevo International Airport","city":"Sarajevo","country":"Bosnia and Herzegovina","lat":43.8246,"lon":18.3315},
  {"iata":"LYS","name":"Lyon-Saint Exupéry Airport","city":"Lyon","country":"France","lat":45.7256,"lon":5.0811},
  {"iata":"NCE","name":"Nice Côte d'Azur Airport","city":"Nice","country":"France","lat":43.6584,"lon":7.2159},
  {"iata":"MRS","name":"Marseille Provence Airport","city":"Marseille","country":"France","lat":43.4393,"lon":5.2214},
  {"iata":"TLS","name":"Toulouse-Blagnac Airport","city":"Toulouse","country":"France","lat":43.6293,"lon":1.3638},
  {"iata":"BOD","name":"Bordeaux-Mérignac Airport","city":"Bordeaux","country":"France","lat":44.8283,"lon":-0.7155},
  {"iata":"NTE","name":"Nantes Atlantique Airport","city":"Nantes","country":"France","lat":47.1532,"lon":-1.6108},
  {"iata":"SXB","name":"Strasbourg Airport","city":"Strasbourg","country":"France","lat":48.5383,"lon":7.6280},
  {"iata":"LIL","name":"Lille Airport","city":"Lille","country":"France","lat":50.5620,"lon":3.0894},
  {"iata":"RNS","name":"Rennes-Saint-Jacques Airport","city":"Rennes","country":"France","lat":48.0695,"lon":-1.7348},
  {"iata":"CFN","name":"Donegal Airport","city":"Donegal","country":"Ireland","lat":55.0442,"lon":-8.3410},
  {"iata":"SNN","name":"Shannon Airport","city":"Shannon","country":"Ireland","lat":52.7020,"lon":-8.9248},
  {"iata":"ORK","name":"Cork Airport","city":"Cork","country":"Ireland","lat":51.8413,"lon":-8.4911},
  {"iata":"AMS","name":"Amsterdam Airport Schiphol","city":"Amsterdam","country":"Netherlands","lat":52.3105,"lon":4.7683},
  {"iata":"EIN","name":"Eindhoven Airport","city":"Eindhoven","country":"Netherlands","lat":51.4501,"lon":5.3745},
  {"iata":"RTM","name":"Rotterdam The Hague Airport","city":"Rotterdam","country":"Netherlands","lat":51.9569,"lon":4.4372},
  {"iata":"ANR","name":"Antwerp International Airport","city":"Antwerp","country":"Belgium","lat":51.1894,"lon":4.4603},
  {"iata":"LGG","name":"Liège Airport","city":"Liège","country":"Belgium","lat":50.6374,"lon":5.4432},
  {"iata":"POZ","name":"Poznań–Ławica Airport","city":"Poznań","country":"Poland","lat":52.4210,"lon":16.8263},
  {"iata":"WRO","name":"Copernicus Airport Wrocław","city":"Wrocław","country":"Poland","lat":51.1027,"lon":16.8858},
  {"iata":"KRK","name":"John Paul II International Airport Kraków–Balice","city":"Kraków","country":"Poland","lat":50.0778,"lon":19.7848},
  {"iata":"GDN","name":"Lech Wałęsa Airport Gdańsk","city":"Gdańsk","country":"Poland","lat":54.3776,"lon":18.4662},
  {"iata":"KTW","name":"Katowice International Airport","city":"Katowice","country":"Poland","lat":50.4743,"lon":19.0800},
  {"iata":"LCJ","name":"Łódź Władysław Reymont Airport","city":"Łódź","country":"Poland","lat":51.7219,"lon":19.3981},
  {"iata":"OSR","name":"Leoš Janáček Airport Ostrava","city":"Ostrava","country":"Czech Republic","lat":49.6963,"lon":18.1111},
  {"iata":"BRQ","name":"Brno-Tuřany Airport","city":"Brno","country":"Czech Republic","lat":49.1513,"lon":16.6944},
  {"iata":"KSC","name":"Košice International Airport","city":"Košice","country":"Slovakia","lat":48.6631,"lon":21.2411},
  {"iata":"BTS","name":"M. R. Štefánik Airport","city":"Bratislava","country":"Slovakia","lat":48.1702,"lon":17.2127},
  {"iata":"MSQ","name":"Minsk National Airport","city":"Minsk","country":"Belarus","lat":53.8825,"lon":28.0325},
  {"iata":"VNO","name":"Vilnius Airport","city":"Vilnius","country":"Lithuania","lat":54.6341,"lon":25.2858},
  {"iata":"RIX","name":"Riga International Airport","city":"Riga","country":"Latvia","lat":56.9236,"lon":23.9711},
  {"iata":"TLL","name":"Tallinn Airport","city":"Tallinn","country":"Estonia","lat":59.4133,"lon":24.8328},
  {"iata":"HEL","name":"Helsinki-Vantaa Airport","city":"Helsinki","country":"Finland","lat":60.3172,"lon":24.9633},
  {"iata":"TMP","name":"Tampere-Pirkkala Airport","city":"Tampere","country":"Finland","lat":61.4142,"lon":23.6044},
  {"iata":"OUL","name":"Oulu Airport","city":"Oulu","country":"Finland","lat":64.9301,"lon":25.3546},
  {"iata":"TKU","name":"Turku Airport","city":"Turku","country":"Finland","lat":60.5141,"lon":22.2628},
  {"iata":"IVL","name":"Ivalo Airport","city":"Ivalo","country":"Finland","lat":68.6073,"lon":27.4053},
  {"iata":"GOT","name":"Gothenburg Landvetter Airport","city":"Gothenburg","country":"Sweden","lat":57.6628,"lon":12.2798},
  {"iata":"MMX","name":"Malmö Airport","city":"Malmö","country":"Sweden","lat":55.5363,"lon":13.3762},
  {"iata":"LLA","name":"Luleå Airport","city":"Luleå","country":"Sweden","lat":65.5438,"lon":22.1222},
  {"iata":"UME","name":"Umeå Airport","city":"Umeå","country":"Sweden","lat":63.7918,"lon":20.2828},
  {"iata":"VBY","name":"Visby Airport","city":"Visby","country":"Sweden","lat":57.6628,"lon":18.3462},
  {"iata":"BGO","name":"Bergen Airport Flesland","city":"Bergen","country":"Norway","lat":60.2934,"lon":5.2181},
  {"iata":"TRD","name":"Trondheim Airport Vaernes","city":"Trondheim","country":"Norway","lat":63.4578,"lon":10.9260},
  {"iata":"SVG","name":"Stavanger Airport Sola","city":"Stavanger","country":"Norway","lat":58.8768,"lon":5.6378},
  {"iata":"TOS","name":"Tromsø Airport","city":"Tromsø","country":"Norway","lat":69.6833,"lon":18.9189},
  {"iata":"AAL","name":"Aalborg Airport","city":"Aalborg","country":"Denmark","lat":57.0928,"lon":9.8492},
  {"iata":"BLL","name":"Billund Airport","city":"Billund","country":"Denmark","lat":55.7403,"lon":9.1518},
  {"iata":"RKV","name":"Reykjavik Airport","city":"Reykjavik","country":"Iceland","lat":64.1300,"lon":-21.9406},
  {"iata":"KEF","name":"Keflavik International Airport","city":"Keflavik","country":"Iceland","lat":63.9850,"lon":-22.6056},
  {"iata":"FAO","name":"Faro Airport","city":"Faro","country":"Portugal","lat":37.0144,"lon":-7.9659},
  {"iata":"FNC","name":"Madeira Airport","city":"Funchal","country":"Portugal","lat":32.6979,"lon":-16.7745},
  {"iata":"PDL","name":"João Paulo II Airport","city":"Ponta Delgada","country":"Portugal","lat":37.7412,"lon":-25.6979},
  {"iata":"HRG","name":"Hurghada International Airport","city":"Hurghada","country":"Egypt","lat":27.1783,"lon":33.7994},
  {"iata":"SSH","name":"Sharm el-Sheikh International Airport","city":"Sharm el-Sheikh","country":"Egypt","lat":27.9773,"lon":34.3950},
  {"iata":"LXR","name":"Luxor International Airport","city":"Luxor","country":"Egypt","lat":25.6710,"lon":32.7066},
  {"iata":"ABJ","name":"Port Bouet Airport","city":"Abidjan","country":"Ivory Coast","lat":5.2613,"lon":-3.9263},
  {"iata":"ACC","name":"Kotoka International Airport","city":"Accra","country":"Ghana","lat":5.6052,"lon":-0.1668},
  {"iata":"DKR","name":"Léopold Sédar Senghor International Airport","city":"Dakar","country":"Senegal","lat":14.7397,"lon":-17.4902},
  {"iata":"ABV","name":"Nnamdi Azikiwe International Airport","city":"Abuja","country":"Nigeria","lat":9.0068,"lon":7.2632},
  {"iata":"PHC","name":"Port Harcourt International Airport","city":"Port Harcourt","country":"Nigeria","lat":5.0155,"lon":6.9496},
  {"iata":"KAN","name":"Mallam Aminu Kano International Airport","city":"Kano","country":"Nigeria","lat":12.0476,"lon":8.5246},
  {"iata":"DLA","name":"Douala International Airport","city":"Douala","country":"Cameroon","lat":4.0061,"lon":9.7194},
  {"iata":"NSI","name":"Yaoundé Nsimalen International Airport","city":"Yaoundé","country":"Cameroon","lat":3.7226,"lon":11.5533},
  {"iata":"BZV","name":"Maya-Maya Airport","city":"Brazzaville","country":"Republic of the Congo","lat":-4.2517,"lon":15.2531},
  {"iata":"FIH","name":"N'Djili Airport","city":"Kinshasa","country":"DRC","lat":-4.3857,"lon":15.4446},
  {"iata":"LFW","name":"Gnassingbé Eyadéma International Airport","city":"Lomé","country":"Togo","lat":6.1657,"lon":1.2545},
  {"iata":"COO","name":"Cadjehoun Airport","city":"Cotonou","country":"Benin","lat":6.3573,"lon":2.3845},
  {"iata":"BKO","name":"Bamako-Sénou International Airport","city":"Bamako","country":"Mali","lat":12.5335,"lon":-7.9499},
  {"iata":"OUA","name":"Ouagadougou Airport","city":"Ouagadougou","country":"Burkina Faso","lat":12.3532,"lon":-1.5124},
  {"iata":"NIM","name":"Diori Hamani International Airport","city":"Niamey","country":"Niger","lat":13.4815,"lon":2.1836},
  {"iata":"NDJ","name":"N'Djamena International Airport","city":"N'Djamena","country":"Chad","lat":12.1337,"lon":15.0340},
  {"iata":"BGF","name":"Bangui M'Poko International Airport","city":"Bangui","country":"CAR","lat":4.3985,"lon":18.5188},
  {"iata":"SSG","name":"Malabo Airport","city":"Malabo","country":"Equatorial Guinea","lat":3.7553,"lon":8.7087},
  {"iata":"LBV","name":"Leon M'ba International Airport","city":"Libreville","country":"Gabon","lat":0.4586,"lon":9.4123},
  {"iata":"STP","name":"São Tomé International Airport","city":"São Tomé","country":"São Tomé and Príncipe","lat":0.3782,"lon":6.7122},
  {"iata":"TNR","name":"Ivato Airport","city":"Antananarivo","country":"Madagascar","lat":-18.7969,"lon":47.4788},
  {"iata":"MRU","name":"Sir Seewoosagur Ramgoolam International Airport","city":"Port Louis","country":"Mauritius","lat":-20.4302,"lon":57.6836},
  {"iata":"RUN","name":"Roland Garros Airport","city":"Saint-Denis","country":"Réunion","lat":-20.8871,"lon":55.5103},
  {"iata":"HAH","name":"Prince Said Ibrahim International Airport","city":"Moroni","country":"Comoros","lat":-11.5337,"lon":43.2719},
  {"iata":"SEZ","name":"Seychelles International Airport","city":"Victoria","country":"Seychelles","lat":-4.6743,"lon":55.5218},
  {"iata":"DAR","name":"Julius Nyerere International Airport","city":"Dar es Salaam","country":"Tanzania","lat":-6.8781,"lon":39.2026},
  {"iata":"KGL","name":"Kigali International Airport","city":"Kigali","country":"Rwanda","lat":-1.9686,"lon":30.1395},
  {"iata":"EBB","name":"Entebbe International Airport","city":"Entebbe","country":"Uganda","lat":0.0424,"lon":32.4435},
  {"iata":"BJM","name":"Bujumbura International Airport","city":"Bujumbura","country":"Burundi","lat":-3.3240,"lon":29.3185},
  {"iata":"LUN","name":"Kenneth Kaunda International Airport","city":"Lusaka","country":"Zambia","lat":-15.3308,"lon":28.4526},
  {"iata":"HRE","name":"Robert Gabriel Mugabe International Airport","city":"Harare","country":"Zimbabwe","lat":-17.9318,"lon":31.0928},
  {"iata":"BLZ","name":"Chileka International Airport","city":"Blantyre","country":"Malawi","lat":-15.6791,"lon":34.9740},
  {"iata":"MPM","name":"Maputo International Airport","city":"Maputo","country":"Mozambique","lat":-25.9208,"lon":32.5726},
  {"iata":"WDH","name":"Hosea Kutako International Airport","city":"Windhoek","country":"Namibia","lat":-22.4799,"lon":17.4709},
  {"iata":"GBE","name":"Sir Seretse Khama International Airport","city":"Gaborone","country":"Botswana","lat":-24.5552,"lon":25.9182},
  {"iata":"FLE","name":"OR Tambo International","city":"Johannesburg","country":"South Africa","lat":-26.139,"lon":28.246},
  {"iata":"CPT","name":"Cape Town International Airport","city":"Cape Town","country":"South Africa","lat":-33.9649,"lon":18.6017},
  {"iata":"DUR","name":"King Shaka International Airport","city":"Durban","country":"South Africa","lat":-29.6144,"lon":31.1197},
  {"iata":"PLZ","name":"Chief Dawid Stuurman International Airport","city":"Port Elizabeth","country":"South Africa","lat":-33.9849,"lon":25.6173},
  {"iata":"BFN","name":"Bram Fischer International Airport","city":"Bloemfontein","country":"South Africa","lat":-29.0927,"lon":26.3024},
  {"iata":"ELS","name":"King Phalo Airport","city":"East London","country":"South Africa","lat":-32.9836,"lon":27.8259},
  {"iata":"HLA","name":"Lanseria International Airport","city":"Pretoria","country":"South Africa","lat":-25.9385,"lon":27.9261},
  {"iata":"NLD","name":"Quetzalcóatl International Airport","city":"Nuevo Laredo","country":"Mexico","lat":27.4439,"lon":-99.5705},
  {"iata":"BJX","name":"Del Bajío International Airport","city":"León","country":"Mexico","lat":20.9935,"lon":-101.4808},
  {"iata":"PVR","name":"Licenciado Gustavo Díaz Ordaz International Airport","city":"Puerto Vallarta","country":"Mexico","lat":20.6801,"lon":-105.2544},
  {"iata":"SJD","name":"Los Cabos International Airport","city":"San José del Cabo","country":"Mexico","lat":23.1518,"lon":-109.7210},
  {"iata":"MZT","name":"General Rafael Buelna International Airport","city":"Mazatlán","country":"Mexico","lat":23.1614,"lon":-106.2661},
  {"iata":"ZIH","name":"Ixtapa-Zihuatanejo International Airport","city":"Zihuatanejo","country":"Mexico","lat":17.6016,"lon":-101.4605},
  {"iata":"HMO","name":"General Ignacio Pesqueira García International Airport","city":"Hermosillo","country":"Mexico","lat":29.0959,"lon":-111.0479},
  {"iata":"CUL","name":"Bachigualato Federal International Airport","city":"Culiacán","country":"Mexico","lat":24.7645,"lon":-107.4747},
  {"iata":"OAX","name":"Xoxocotlán International Airport","city":"Oaxaca","country":"Mexico","lat":16.9999,"lon":-96.7266},
  {"iata":"VER","name":"General Heriberto Jara International Airport","city":"Veracruz","country":"Mexico","lat":19.1459,"lon":-96.1873},
  {"iata":"MID","name":"Manuel Crescencio Rejón International Airport","city":"Mérida","country":"Mexico","lat":20.9370,"lon":-89.6577},
  {"iata":"TRC","name":"Francisco Sarabia International Airport","city":"Torreón","country":"Mexico","lat":25.5683,"lon":-103.4114},
  {"iata":"MLM","name":"General Francisco J. Mujica International Airport","city":"Morelia","country":"Mexico","lat":19.8499,"lon":-101.0251},
  {"iata":"AGU","name":"Jesús Terán Peredo International Airport","city":"Aguascalientes","country":"Mexico","lat":21.7056,"lon":-102.3181},
  {"iata":"SLP","name":"Ponciano Arriaga International Airport","city":"San Luis Potosí","country":"Mexico","lat":22.2543,"lon":-100.9308},
  {"iata":"TAM","name":"General Francisco Javier Mina International Airport","city":"Tampico","country":"Mexico","lat":22.2964,"lon":-97.8659},
  {"iata":"TGZ","name":"Ángel Albino Corzo International Airport","city":"Tuxtla Gutiérrez","country":"Mexico","lat":16.5636,"lon":-93.0225},
  {"iata":"VSA","name":"Carlos Rovirosa Pérez International Airport","city":"Villahermosa","country":"Mexico","lat":17.9970,"lon":-92.8174},
  {"iata":"MXL","name":"General Rodolfo Sánchez Taboada International Airport","city":"Mexicali","country":"Mexico","lat":32.6306,"lon":-115.2416},
  {"iata":"TIJ","name":"General Abelardo L. Rodríguez International Airport","city":"Tijuana","country":"Mexico","lat":32.5411,"lon":-116.9701},
  {"iata":"LAP","name":"Manuel Márquez de León International Airport","city":"La Paz","country":"Mexico","lat":24.0727,"lon":-110.3622},
  {"iata":"LTO","name":"Loreto International Airport","city":"Loreto","country":"Mexico","lat":25.9892,"lon":-111.3479},
  {"iata":"MXL","name":"General Rodolfo Sánchez Taboada International Airport","city":"Mexicali","country":"Mexico","lat":32.6306,"lon":-115.2416},
  {"iata":"NLU","name":"Felipe Angeles International Airport","city":"Mexico City","country":"Mexico","lat":19.7561,"lon":-99.0145},
  {"iata":"PBC","name":"Hermanos Serdán International Airport","city":"Puebla","country":"Mexico","lat":19.1581,"lon":-98.3714},
  {"iata":"QRO","name":"Querétaro Intercontinental Airport","city":"Querétaro","country":"Mexico","lat":20.6173,"lon":-100.1859},
  {"iata":"LHR","name":"Heathrow Airport Terminal 5","city":"London","country":"United Kingdom","lat":51.4775,"lon":-0.4614},
  {"iata":"SYZ","name":"Shahid Dastghaib International Airport","city":"Shiraz","country":"Iran","lat":29.5392,"lon":52.5898},
  {"iata":"MHD","name":"Mashhad International Airport","city":"Mashhad","country":"Iran","lat":36.2352,"lon":59.6410},
  {"iata":"TBZ","name":"Tabriz International Airport","city":"Tabriz","country":"Iran","lat":38.1339,"lon":46.2350},
  {"iata":"KER","name":"Kerman Airport","city":"Kerman","country":"Iran","lat":30.2744,"lon":56.9511},
  {"iata":"AWZ","name":"Ahvaz International Airport","city":"Ahvaz","country":"Iran","lat":31.3374,"lon":48.7620},
  {"iata":"OMH","name":"Urmia Airport","city":"Urmia","country":"Iran","lat":37.6681,"lon":45.0687},
  {"iata":"ADU","name":"Ardabil Airport","city":"Ardabil","country":"Iran","lat":38.3257,"lon":48.4244},
  {"iata":"ZAH","name":"Zahedan International Airport","city":"Zahedan","country":"Iran","lat":29.4757,"lon":60.9062},
  {"iata":"BJB","name":"Bojnord Airport","city":"Bojnord","country":"Iran","lat":37.4930,"lon":57.3082},
  {"iata":"CKT","name":"Sarakhs Airport","city":"Sarakhs","country":"Iran","lat":36.5012,"lon":61.0649},
  {"iata":"GBT","name":"Gorgan Airport","city":"Gorgan","country":"Iran","lat":36.9094,"lon":54.4013},
  {"iata":"SYJ","name":"Sirjan Airport","city":"Sirjan","country":"Iran","lat":29.5509,"lon":55.6727},
  {"iata":"BND","name":"Bandar Abbas International Airport","city":"Bandar Abbas","country":"Iran","lat":27.2183,"lon":56.3778},
  {"iata":"KSH","name":"Shahid Ashrafi Esfahani Airport","city":"Kermanshah","country":"Iran","lat":34.3459,"lon":47.1581},
  {"iata":"IFN","name":"Isfahan International Airport","city":"Isfahan","country":"Iran","lat":32.7508,"lon":51.8613},
  {"iata":"YZD","name":"Downsview Airport","city":"Toronto","country":"Canada","lat":43.7425,"lon":-79.4655},
  {"iata":"YTZ","name":"Billy Bishop Toronto City Airport","city":"Toronto","country":"Canada","lat":43.6275,"lon":-79.3962},
  {"iata":"YHM","name":"John C. Munro Hamilton International Airport","city":"Hamilton","country":"Canada","lat":43.1736,"lon":-79.9350},
  {"iata":"YXU","name":"London International Airport","city":"London","country":"Canada","lat":43.0356,"lon":-81.1533},
  {"iata":"YQT","name":"Thunder Bay International Airport","city":"Thunder Bay","country":"Canada","lat":48.3718,"lon":-89.3239},
  {"iata":"YWG","name":"James Armstrong Richardson International Airport","city":"Winnipeg","country":"Canada","lat":49.9100,"lon":-97.2398},
  {"iata":"YQR","name":"Regina International Airport","city":"Regina","country":"Canada","lat":50.4319,"lon":-104.6658},
  {"iata":"YXE","name":"John G. Diefenbaker International Airport","city":"Saskatoon","country":"Canada","lat":52.1708,"lon":-106.6997},
  {"iata":"YLW","name":"Kelowna International Airport","city":"Kelowna","country":"Canada","lat":49.9561,"lon":-119.3778},
  {"iata":"YXS","name":"Prince George Airport","city":"Prince George","country":"Canada","lat":53.8894,"lon":-122.6793},
  {"iata":"YKA","name":"Kamloops Airport","city":"Kamloops","country":"Canada","lat":50.7022,"lon":-120.4444},
  {"iata":"YZF","name":"Yellowknife Airport","city":"Yellowknife","country":"Canada","lat":62.4628,"lon":-114.4403},
  {"iata":"YXY","name":"Erik Nielsen Whitehorse International Airport","city":"Whitehorse","country":"Canada","lat":60.7096,"lon":-135.0675},
  {"iata":"YFB","name":"Iqaluit Airport","city":"Iqaluit","country":"Canada","lat":63.7564,"lon":-68.5558},
  {"iata":"YQX","name":"Gander International Airport","city":"Gander","country":"Canada","lat":48.9369,"lon":-54.5681},
  {"iata":"YYT","name":"St. John's International Airport","city":"St. John's","country":"Canada","lat":47.6186,"lon":-52.7519},
  {"iata":"YQM","name":"Greater Moncton Roméo LeBlanc International Airport","city":"Moncton","country":"Canada","lat":46.1122,"lon":-64.6786},
  {"iata":"YQB","name":"Quebec City Jean Lesage International Airport","city":"Quebec City","country":"Canada","lat":46.7911,"lon":-71.3933},
  {"iata":"YUL","name":"Montréal-Pierre Elliott Trudeau International Airport","city":"Montreal","country":"Canada","lat":45.4706,"lon":-73.7408},
  {"iata":"UKK","name":"Ust-Kamenogorsk Airport","city":"Ust-Kamenogorsk","country":"Kazakhstan","lat":50.0366,"lon":82.4942},
  {"iata":"SCO","name":"Aktau Airport","city":"Aktau","country":"Kazakhstan","lat":43.8601,"lon":51.0922},
  {"iata":"AKX","name":"Aktobe Airport","city":"Aktobe","country":"Kazakhstan","lat":50.2458,"lon":57.2067},
  {"iata":"CIT","name":"Shymkent Airport","city":"Shymkent","country":"Kazakhstan","lat":42.3642,"lon":69.4788},
  {"iata":"KZO","name":"Kyzylorda Airport","city":"Kyzylorda","country":"Kazakhstan","lat":44.7069,"lon":65.5924},
  {"iata":"PWQ","name":"Pavlodar Airport","city":"Pavlodar","country":"Kazakhstan","lat":52.1950,"lon":77.0739},
  {"iata":"DZN","name":"Zhezkazgan Airport","city":"Zhezkazgan","country":"Kazakhstan","lat":47.7083,"lon":67.7333},
  {"iata":"KGF","name":"Sary-Arka Airport","city":"Karaganda","country":"Kazakhstan","lat":49.6708,"lon":73.3344},
  {"iata":"SKD","name":"Samarkand Airport","city":"Samarkand","country":"Uzbekistan","lat":39.7005,"lon":66.9838},
  {"iata":"BHK","name":"Bukhara Airport","city":"Bukhara","country":"Uzbekistan","lat":39.7750,"lon":64.4833},
  {"iata":"NVI","name":"Navoi Airport","city":"Navoi","country":"Uzbekistan","lat":40.1172,"lon":65.1708},
  {"iata":"FEG","name":"Fergana Airport","city":"Fergana","country":"Uzbekistan","lat":40.3588,"lon":71.7450},
  {"iata":"NCU","name":"Nukus Airport","city":"Nukus","country":"Uzbekistan","lat":42.4884,"lon":59.6233},
  {"iata":"UGC","name":"Urgench Airport","city":"Urgench","country":"Uzbekistan","lat":41.5843,"lon":60.6417},
  {"iata":"TMJ","name":"Termez Airport","city":"Termez","country":"Uzbekistan","lat":37.2867,"lon":67.3100},
  {"iata":"AZN","name":"Andijan Airport","city":"Andijan","country":"Uzbekistan","lat":40.7277,"lon":72.2940},
  {"iata":"NMA","name":"Namangan Airport","city":"Namangan","country":"Uzbekistan","lat":40.9846,"lon":71.5567},
  {"iata":"KSQ","name":"Karshi Airport","city":"Karshi","country":"Uzbekistan","lat":38.8336,"lon":65.9215},
  {"iata":"OMS","name":"Omsk Tsentralny Airport","city":"Omsk","country":"Russia","lat":54.9670,"lon":73.3105},
  {"iata":"NOZ","name":"Spichenkovo Airport","city":"Novokuznetsk","country":"Russia","lat":53.8114,"lon":86.8772},
  {"iata":"TJM","name":"Roshchino International Airport","city":"Tyumen","country":"Russia","lat":57.1896,"lon":68.4988},
  {"iata":"HTA","name":"Chita-Kadala Airport","city":"Chita","country":"Russia","lat":52.0263,"lon":113.3056},
  {"iata":"UUS","name":"Yuzhno-Sakhalinsk Airport","city":"Yuzhno-Sakhalinsk","country":"Russia","lat":46.8887,"lon":142.7183},
  {"iata":"PKC","name":"Petropavlovsk-Kamchatsky Airport","city":"Petropavlovsk-Kamchatsky","country":"Russia","lat":53.1679,"lon":158.4539},
  {"iata":"GDX","name":"Sokol Airport","city":"Magadan","country":"Russia","lat":59.9101,"lon":150.7203},
  {"iata":"YKS","name":"Yakutsk Airport","city":"Yakutsk","country":"Russia","lat":62.0934,"lon":129.7706},
  {"iata":"IKT","name":"Irkutsk International Airport","city":"Irkutsk","country":"Russia","lat":52.2680,"lon":104.3889},
  {"iata":"KJA","name":"Krasnoyarsk International Airport","city":"Krasnoyarsk","country":"Russia","lat":56.1726,"lon":92.4933},
  {"iata":"OVB","name":"Tolmachevo Airport","city":"Novosibirsk","country":"Russia","lat":54.9663,"lon":82.6507},
  {"iata":"SVX","name":"Koltsovo Airport","city":"Yekaterinburg","country":"Russia","lat":56.7431,"lon":60.8027},
  {"iata":"KZN","name":"Kazan International Airport","city":"Kazan","country":"Russia","lat":55.6063,"lon":49.2787},
  {"iata":"UFA","name":"Ufa International Airport","city":"Ufa","country":"Russia","lat":54.5575,"lon":55.8744},
  {"iata":"GOJ","name":"Nizhny Novgorod Airport","city":"Nizhny Novgorod","country":"Russia","lat":56.2301,"lon":43.7840},
  {"iata":"ROV","name":"Platov International Airport","city":"Rostov-on-Don","country":"Russia","lat":47.4938,"lon":39.9247},
  {"iata":"KRR","name":"Krasnodar International Airport","city":"Krasnodar","country":"Russia","lat":45.0347,"lon":39.1705},
  {"iata":"STW","name":"Stavropol Shpakovskoye Airport","city":"Stavropol","country":"Russia","lat":45.1092,"lon":42.1128},
  {"iata":"MRV","name":"Mineralnye Vody Airport","city":"Mineralnye Vody","country":"Russia","lat":44.2251,"lon":43.0819},
  {"iata":"AER","name":"Sochi International Airport","city":"Sochi","country":"Russia","lat":43.4499,"lon":39.9566},
  {"iata":"GRV","name":"Grozny Airport","city":"Grozny","country":"Russia","lat":43.3881,"lon":45.6984},
  {"iata":"MCX","name":"Uytash Airport","city":"Makhachkala","country":"Russia","lat":42.8168,"lon":47.6523},
  {"iata":"NAL","name":"Nalchik Airport","city":"Nalchik","country":"Russia","lat":43.5129,"lon":43.6366},
  {"iata":"VLK","name":"Volgodonsk Airport","city":"Volgodonsk","country":"Russia","lat":47.6822,"lon":42.0728},
  {"iata":"VOG","name":"Volgograd International Airport","city":"Volgograd","country":"Russia","lat":48.7826,"lon":44.3455},
  {"iata":"PEE","name":"Bolshoye Savino Airport","city":"Perm","country":"Russia","lat":57.9145,"lon":56.0211},
  {"iata":"CEK","name":"Chelyabinsk Balandino Airport","city":"Chelyabinsk","country":"Russia","lat":55.3058,"lon":61.5033},
  {"iata":"MMK","name":"Murmansk Airport","city":"Murmansk","country":"Russia","lat":68.7817,"lon":32.7508},
  {"iata":"ARH","name":"Talagi Airport","city":"Arkhangelsk","country":"Russia","lat":64.6003,"lon":40.7167},
  {"iata":"SKX","name":"Saransk Airport","city":"Saransk","country":"Russia","lat":54.1251,"lon":45.2123},
  {"iata":"TBW","name":"Tambov Donskoye Airport","city":"Tambov","country":"Russia","lat":52.8060,"lon":41.4828},
  {"iata":"LPX","name":"Liepāja International Airport","city":"Liepāja","country":"Latvia","lat":56.5175,"lon":21.0969},
  {"iata":"GRO","name":"Girona-Costa Brava Airport","city":"Girona","country":"Spain","lat":41.9010,"lon":2.7605},
  {"iata":"REU","name":"Reus Airport","city":"Reus","country":"Spain","lat":41.1474,"lon":1.1672},
  {"iata":"VLC","name":"Valencia Airport","city":"Valencia","country":"Spain","lat":39.4893,"lon":-0.4816},
  {"iata":"BIO","name":"Bilbao Airport","city":"Bilbao","country":"Spain","lat":43.3011,"lon":-2.9106},
  {"iata":"SPC","name":"La Palma Airport","city":"Santa Cruz de la Palma","country":"Spain","lat":28.6265,"lon":-17.7556},
  {"iata":"FUE","name":"Fuerteventura Airport","city":"Fuerteventura","country":"Spain","lat":28.4527,"lon":-13.8638},
  {"iata":"ACE","name":"Lanzarote Airport","city":"Arrecife","country":"Spain","lat":28.9455,"lon":-13.6052},
  {"iata":"GMZ","name":"La Gomera Airport","city":"La Gomera","country":"Spain","lat":28.0296,"lon":-17.2146},
  {"iata":"HHN","name":"Frankfurt-Hahn Airport","city":"Frankfurt","country":"Germany","lat":49.9487,"lon":7.2639},
  {"iata":"FKB","name":"Karlsruhe Baden-Baden Airport","city":"Karlsruhe","country":"Germany","lat":48.7794,"lon":8.0805},
  {"iata":"ERF","name":"Erfurt-Weimar Airport","city":"Erfurt","country":"Germany","lat":50.9798,"lon":10.9581},
  {"iata":"RLG","name":"Laage Airport","city":"Rostock","country":"Germany","lat":53.9182,"lon":12.2783},
  {"iata":"SCN","name":"Saarbrücken Airport","city":"Saarbrücken","country":"Germany","lat":49.2146,"lon":7.1095},
  {"iata":"PAD","name":"Paderborn Lippstadt Airport","city":"Paderborn","country":"Germany","lat":51.6141,"lon":8.6163},
  {"iata":"FMO","name":"Münster Osnabrück International Airport","city":"Münster","country":"Germany","lat":52.1346,"lon":7.6848},
  {"iata":"KSF","name":"Kassel Airport","city":"Kassel","country":"Germany","lat":51.4184,"lon":9.3775},
  {"iata":"DTM","name":"Dortmund Airport","city":"Dortmund","country":"Germany","lat":51.5183,"lon":7.6123},
  {"iata":"SXF","name":"Berlin Schönefeld Airport","city":"Berlin","country":"Germany","lat":52.3800,"lon":13.5225},
  {"iata":"QWU","name":"Augsburg Airport","city":"Augsburg","country":"Germany","lat":48.4252,"lon":10.9317},
  {"iata":"LBC","name":"Lübeck Airport","city":"Lübeck","country":"Germany","lat":53.8054,"lon":10.7192},
  {"iata":"FLR","name":"Florence Airport","city":"Florence","country":"Italy","lat":43.8100,"lon":11.2051},
  {"iata":"GRS","name":"Grosseto Airport","city":"Grosseto","country":"Italy","lat":42.7597,"lon":11.0719},
  {"iata":"AHO","name":"Alghero-Riviera del Corallo Airport","city":"Alghero","country":"Italy","lat":40.6321,"lon":8.2919},
  {"iata":"OLB","name":"Olbia Costa Smeralda Airport","city":"Olbia","country":"Italy","lat":40.8987,"lon":9.5176},
  {"iata":"CTA","name":"Catania-Fontanarossa Airport","city":"Catania","country":"Italy","lat":37.4668,"lon":15.0664},
  {"iata":"LMP","name":"Lampedusa Airport","city":"Lampedusa","country":"Italy","lat":35.4979,"lon":12.6181},
  {"iata":"PNL","name":"Pantelleria Airport","city":"Pantelleria","country":"Italy","lat":36.8165,"lon":11.9689},
  {"iata":"REG","name":"Reggio Calabria Airport","city":"Reggio Calabria","country":"Italy","lat":38.0712,"lon":15.6516},
  {"iata":"CRV","name":"Crotone Airport","city":"Crotone","country":"Italy","lat":38.9972,"lon":17.0802},
  {"iata":"SUF","name":"Lamezia Terme International Airport","city":"Lamezia Terme","country":"Italy","lat":38.9054,"lon":16.2423},
  {"iata":"PEJ","name":"Peje Airport","city":"Pejë","country":"Kosovo","lat":42.6600,"lon":20.2850},
  {"iata":"PRN","name":"Pristina International Airport Adem Jashari","city":"Pristina","country":"Kosovo","lat":42.5728,"lon":21.0358},
  {"iata":"TGD","name":"Podgorica Airport","city":"Podgorica","country":"Montenegro","lat":42.3594,"lon":19.2519},
  {"iata":"TIV","name":"Tivat Airport","city":"Tivat","country":"Montenegro","lat":42.4047,"lon":18.7233},
  {"iata":"INI","name":"Niš Constantine the Great Airport","city":"Niš","country":"Serbia","lat":43.3373,"lon":21.8537}
]
